city,latitude,longitude,temperature,humidity,cloudiness,wind,datetime,country
nantucket,41.2835,-70.0995,22.03,79,90,25.32,1611979267,US
upernavik,72.7868,-56.1549,-8.82,83,0,10.2,1611979252,GL
bara,10.3744,10.7288,63.88,27,0,7.52,1611979269,NG
melita,49.2681,-100.9967,13.42,96,100,6.35,1611979270,CA
carnarvon,-24.8667,113.6333,105.8,21,0,18.41,1611979271,AU
menongue,-14.6585,17.691,61.14,95,77,3.85,1611979273,AO
bredasdorp,-34.5322,20.0403,62.01,89,91,4.9,1611979246,ZA
sao felix do xingu,-6.6447,-51.995,71.65,96,94,0.72,1611979233,BR
saint george,37.1041,-113.5841,36.93,93,75,6.91,1611979276,US
port alfred,-33.5906,26.891,66,81,10,7,1611979236,ZA
saskylakh,71.9167,114.0833,-37.79,75,0,3.56,1611979278,RU
pokhara,28.2333,83.9833,61.36,28,0,4.16,1611979280,NP
lebu,-37.6167,-73.65,56.89,90,96,6.08,1611979281,CL
hermanus,-34.4187,19.2345,62.01,89,63,3.49,1611979282,ZA
cherskiy,68.75,161.3,-35.12,83,7,2.86,1611979155,RU
miri,4.4148,114.0089,87.4,74,40,9.22,1611979284,MY
portland,45.5234,-122.6762,42.44,76,90,8.05,1611978928,US
tall kayf,37.0833,41.0667,35.6,93,40,4.61,1611979286,TR
punta arenas,-53.15,-70.9167,46.2,81,40,20.71,1611979245,CL
vardo,70.3705,31.1107,26.37,97,100,20.11,1611979289,NO
butaritari,3.0707,172.7902,80.56,78,100,15.57,1611979046,KI
mataura,-46.1927,168.8643,69.17,39,0,1.72,1611979160,NZ
baherden,38.4362,57.4316,53.1,49,59,4.05,1611979292,TM
rikitea,-23.1203,-134.9692,80.19,72,24,9.82,1611979293,PF
albany,42.6001,-73.9662,6.21,50,6,3,1611979204,US
ushuaia,-54.8,-68.3,42.8,75,40,17.27,1611979208,AR
eregli,37.5133,34.0467,31.12,80,40,3.56,1611979297,TR
laguna,38.421,-121.4238,43.75,87,1,4.61,1611979188,US
wasilla,61.5814,-149.4394,23.13,54,1,11.5,1611979299,US
waingapu,-9.6567,120.2641,81.34,79,100,12.88,1611979300,ID
lebedinyy,58.5167,125.5167,-34.2,79,100,2.44,1611979302,RU
dunedin,-45.8742,170.5036,55,71,5,8.99,1611979240,NZ
omboue,-1.5746,9.2618,76.32,90,100,6.55,1611979304,GA
melchor de mencos,17.0686,-89.1522,71.6,94,90,3.94,1611979305,GT
victoria,22.2855,114.1577,64.22,65,0,3,1611979256,HK
tuktoyaktuk,69.4541,-133.0374,-36.4,67,1,2.3,1611979307,CA
vaini,-21.2,-175.2,80.6,89,90,14.97,1611979309,TO
te anau,-45.4167,167.7167,67.98,46,0,2.91,1611979310,NZ
maceio,-9.6658,-35.7353,73.4,100,75,2.3,1611979207,BR
vanimo,-2.6741,141.3028,83.5,79,100,12.24,1611979312,PG
bengkulu,-3.8004,102.2655,85.33,62,98,3.6,1611979313,ID
thompson,55.7435,-97.8558,10.4,85,90,4.61,1611979206,CA
ola,59.5833,151.2833,-11.81,82,44,13.06,1611979315,RU
walvis bay,-22.9575,14.5053,65.59,82,12,8.05,1611979316,NA
kodiak,57.79,-152.4072,35.6,55,1,16.11,1611979318,US
puerto ayora,-0.7393,-90.3518,77,94,38,5.01,1611979255,EC
belmonte,-15.8631,-38.8828,78.8,73,20,10.36,1611979320,BR
tuatapere,-46.1333,167.6833,64.8,49,0,6.62,1611979228,NZ
tasiilaq,65.6145,-37.6368,15.8,48,90,23.02,1611979322,GL
birao,10.2849,22.7882,69.13,23,21,12.33,1611979323,CF
auki,-8.7676,160.7034,82.6,81,95,10.11,1611979325,SB
hit,33.6416,42.8251,47.59,62,8,7.54,1611979326,IQ
airai,-8.9266,125.4092,65.66,98,100,4.56,1611979327,TL
itarema,-2.9248,-39.9167,79,83,84,12.15,1611979328,BR
komsomolskiy,40.4272,71.7189,30.2,55,56,4.61,1611979329,UZ
keti bandar,24.1447,67.4497,67.39,50,0,4.38,1611979330,PK
chadiza,-14.0678,32.4392,65.98,96,100,1.52,1611979332,ZM
kapaa,22.0752,-159.319,73.96,78,40,16.11,1611979333,US
atuona,-9.8,-139.0333,78.49,79,19,19.13,1611979249,PF
hami,42.8,93.45,28.53,78,0,1.12,1611979176,CN
pangnirtung,66.1451,-65.7125,-5.8,65,1,2.3,1611979336,CA
touros,-5.1989,-35.4608,77,88,40,4.61,1611979338,BR
avarua,-21.2078,-159.775,80.6,83,90,6.91,1611979339,CK
gat,31.61,34.7642,46.33,100,51,1.99,1611979340,IL
mahebourg,-20.4081,57.7,78.8,89,40,8.05,1611979342,MU
new norfolk,-42.7826,147.0587,68.65,50,75,11.5,1611979343,AU
hilo,19.7297,-155.09,68.95,73,90,6.91,1611979229,US
del rio,29.3627,-100.8968,61.03,67,1,10.36,1611979346,US
cape town,-33.9258,18.4232,66,94,75,3.44,1611979338,ZA
nikolskoye,59.7035,30.7861,29.37,93,90,8.95,1611979348,RU
berdigestyakh,62.0989,126.6992,-40.52,78,100,0.98,1611979349,RU
bandarbeyla,9.4942,50.8122,73.87,72,21,11.81,1611979350,SO
cidreira,-30.1811,-50.2056,74.82,90,49,4.56,1611979243,BR
besuki,-7.7338,113.6979,79.39,80,100,17.25,1611979353,ID
tateyama,34.9833,139.8667,47.35,46,40,5.75,1611979354,JP
hamilton,39.1834,-84.5333,24.04,63,75,5.75,1611979206,US
ponta do sol,32.6667,-17.1,52.93,75,16,1.99,1611979356,PT
kavaratti,10.5669,72.642,80.35,73,19,11.25,1611979357,IN
lakes entrance,-37.8811,147.981,73.99,73,72,1.01,1611979358,AU
iranshahr,27.2025,60.6848,51.8,12,0,9.22,1611979359,IR
otukpo,7.1913,8.1329,67.53,57,61,3.47,1611979221,NG
half moon bay,37.4636,-122.4286,45.36,76,20,4.61,1611979362,US
pauini,-7.7136,-66.9764,71.82,98,99,1.39,1611979363,BR
dikson,73.5069,80.5464,-33.92,84,96,7.52,1611979214,RU
springfield,37.2153,-93.2982,42.1,61,1,19.57,1611979071,US
maringa,-23.4253,-51.9386,73.4,94,75,13.8,1611979280,BR
sibut,5.718,19.0739,69.87,49,42,1.68,1611979367,CF
san bartolome de tirajana,27.9248,-15.5733,64.71,82,20,19.57,1611979369,ES
clyde river,70.4692,-68.5914,-16.6,83,1,5.75,1611979254,CA
ribeira grande,38.5167,-28.7,61.65,85,98,24.45,1611979371,PT
shubarkuduk,49.1447,56.4872,17.71,96,58,8.9,1611979372,KZ
san andres,12.5847,-81.7006,80.6,69,20,11.5,1611979373,CO
severo-kurilsk,50.6789,156.125,24.69,91,100,17.96,1611979374,RU
port lincoln,-34.7333,135.8667,67.14,58,21,15.5,1611979375,AU
brae,60.3964,-1.353,33.8,75,34,9.22,1611979377,GB
kuryk,43.2,51.65,34.14,90,62,7.94,1611979378,KZ
kavieng,-2.5744,150.7967,84.54,76,100,14.58,1611979379,PG
caravelas,-17.7125,-39.2481,75.02,89,4,5.99,1611979380,BR
longyearbyen,78.2186,15.6401,-0.4,50,20,24.16,1611979381,SJ
richards bay,-28.783,32.0377,71.89,89,66,1.97,1611979256,ZA
bambous virieux,-20.3428,57.7575,81.25,89,40,8.05,1611979384,MU
tiksi,71.6872,128.8694,-29.79,85,100,5.39,1611979288,RU
barrow,71.2906,-156.7887,-11.2,70,75,8.05,1611979278,US
conceicao da barra,-18.5933,-39.7322,74.88,88,4,4.85,1611979136,BR
kununurra,-15.7667,128.7333,80.6,100,75,3.44,1611979323,AU
anloga,5.7947,0.8973,78.8,89,20,2.3,1611979389,GH
fortuna,40.5982,-124.1573,46.85,76,90,12.66,1611979390,US
heihe,50.2441,127.4902,-23.8,62,0,4.47,1611979392,CN
pacific grove,36.6177,-121.9166,45.48,87,1,3.44,1611979393,US
busselton,-33.65,115.3333,80.94,41,0,4,1611979158,AU
atasu,48.6814,71.6433,19.29,91,30,12.01,1611979395,KZ
yellowknife,62.456,-114.3525,-19.32,76,1,5.75,1611979266,CA
vulcan,45.3833,23.2667,34.95,91,100,4.32,1611979397,RO
mount isa,-20.7333,139.5,100.4,22,75,11.5,1611979398,AU
lagoa,39.05,-27.9833,60.04,83,98,20.69,1611979399,PT
ciudad bolivar,8.1222,-63.5497,76.82,70,26,13.13,1611979401,VE
codrington,-38.2667,141.9667,62.94,71,100,11.74,1611979402,AU
yulara,-25.2406,130.9889,89.6,33,40,18.41,1611979403,AU
sao filipe,14.8961,-24.4956,74.86,54,98,9.62,1611979231,CV
qaanaaq,77.484,-69.3632,-13.32,63,0,5.21,1611979340,GL
wilmington,34.2257,-77.9447,29.41,74,1,4.7,1611979345,US
jega,12.2175,4.3792,68.34,23,0,12.5,1611979407,NG
georgetown,5.4112,100.3354,84.52,61,20,8.05,1611979180,MY
kempsey,-31.0833,152.8333,81,75,82,8.01,1611979410,AU
along,28.1667,94.7667,64.62,50,0,0.6,1611979411,IN
turukhansk,65.8167,87.9833,-30.32,77,93,6.06,1611979412,RU
sitka,57.0531,-135.33,39.2,52,90,16.11,1611979413,US
labytnangi,66.6572,66.4183,-40.22,80,83,1.79,1611979414,RU
pisco,-13.7,-76.2167,70.92,73,0,11.5,1611979415,PE
bisho,-32.8472,27.4422,61.7,90,60,1.01,1611979416,ZA
baykit,61.67,96.37,-35.34,76,94,4.41,1611979418,RU
husavik,66.0449,-17.3389,26.6,86,90,17.27,1611978974,IS
bluff,-46.6,168.3333,54.23,75,0,15.23,1611979174,NZ
mpika,-11.8343,31.4529,61.23,94,100,2.26,1611979421,ZM
trinidad,-14.8333,-64.9,74.19,89,100,4.38,1611979342,BO
mareeba,-17,145.4333,84.67,69,77,7,1611979423,AU
kota kinabalu,5.9749,116.0724,84.11,79,20,4.61,1611979424,MY
khatanga,71.9667,102.5,-43.19,75,1,3.13,1611979425,RU
arraial do cabo,-22.9661,-42.0278,76.84,84,77,24.63,1611979427,BR
pevek,69.7008,170.3133,-30.42,85,18,4.05,1611979428,RU
ust-nera,64.5667,143.2,-14.21,80,100,3.78,1611979429,RU
berkakit,56.5807,124.7681,-33.52,80,100,2.59,1611979430,RU
torbay,47.6666,-52.7314,25.48,93,90,20.71,1611979242,CA
hobart,-42.8794,147.3294,69.13,50,75,11.5,1611979228,AU
port macquarie,-31.4333,152.9167,82.02,69,89,1.99,1611979255,AU
luderitz,-26.6481,15.1594,64.8,55,0,21.34,1611979282,NA
neiafu,-18.65,-173.9833,78.8,89,90,9.22,1611979218,TO
nakhon phanom,17.3333,104.4167,75.18,56,0,11.5,1611979437,TH
angoche,-16.2325,39.9086,79.47,83,99,2.73,1611979438,MZ
sheridan,44.8333,-106.9173,34.86,69,90,6.91,1611979439,US
chokurdakh,70.6333,147.9167,-27.9,85,100,8.79,1611979440,RU
warmbad,-28.45,18.7333,68.79,27,0,4.65,1611979441,NA
rio gallegos,-51.6226,-69.2181,50,57,75,16.11,1611979367,AR
muisne,0.6,-80.0333,77.4,87,66,3.4,1611979444,EC
iqaluit,63.7506,-68.5145,-13,70,1,27.63,1611979445,CA
jamestown,42.097,-79.2353,18.5,79,90,9.22,1611979359,US
ternate,0.8,127.4,83.55,71,37,9.37,1611979447,ID
wenling,28.3669,121.36,55.65,59,0,1.01,1611979449,CN
murray bridge,-35.1167,139.2667,70.66,65,56,14.18,1611979450,AU
broken hill,-31.95,141.4333,84.2,34,16,16.11,1611979451,AU
gwadar,25.1216,62.3254,66.88,54,0,3.44,1611979452,PK
vila velha,-20.3297,-40.2925,78.39,78,75,6.91,1611979326,BR
cayenne,4.9333,-52.3333,77,100,75,8.05,1611979210,GF
provideniya,64.3833,-173.3,-7.67,81,11,3.33,1611979286,RU
east london,-33.0153,27.9116,69.03,75,16,3.71,1611979162,ZA
mogadishu,2.0371,45.3438,74.41,82,39,17.96,1611979417,SO
hasaki,35.7333,140.8333,45.14,23,20,20.71,1611979459,JP
flinders,-34.5833,150.8552,81.55,69,75,5.99,1611979460,AU
la romana,18.4273,-68.9728,69.8,100,40,8.55,1611979211,DO
redcliffe,-27.2307,153.0973,83.16,61,40,12.66,1611979462,AU
mar del plata,-38.0023,-57.5575,65.37,94,75,4.61,1611979319,AR
umm kaddadah,13.6017,26.6876,59.14,32,0,18.01,1611979465,SD
ilulissat,69.2167,-51.1,-0.4,55,0,8.05,1611979180,GL
solnechnyy,50.7214,136.6319,-2.09,87,100,2.62,1611979213,RU
margate,51.3813,1.3862,45.54,90,100,9.55,1611979468,GB
biak,-0.9131,122.8766,84.76,58,100,1.07,1611979402,ID
ahipara,-35.1667,173.1667,66.79,67,64,5.61,1611979402,NZ
lavrentiya,65.5833,-171,-18.71,81,0,9.53,1611979471,RU
kichera,55.9375,110.0997,-16.26,76,13,4.16,1611979472,RU
galesong,-5.3166,119.3661,84.2,84,40,9.22,1611979474,ID
arlit,18.7369,7.3853,54.36,34,0,1.07,1611979475,NE
saint-philippe,-21.3585,55.7679,80.31,48,0,5.75,1611979476,RE
santa fe,-31.6333,-60.7,75,77,2,1.99,1611979325,AR
staryy nadym,65.6118,72.6842,-42.05,80,21,3.87,1611979478,RU
kizukuri,40.8061,140.3861,26.08,93,75,20.71,1611979479,JP
boshan,36.4833,117.8333,46.9,44,0,4.85,1611979480,CN
valreas,44.3837,4.9908,41.36,87,0,4.97,1611979481,FR
los llanos de aridane,28.6585,-17.9182,61.63,82,20,5.75,1611979457,ES
bethel,41.3712,-73.414,11.82,52,1,5.75,1611979355,US
guymon,36.6828,-101.4816,51.8,40,1,20.71,1611979485,US
shimoda,34.6667,138.95,44.19,46,40,5.75,1611979486,JP
hyeres,43.1167,6.1167,51.15,62,0,9.22,1611979209,FR
zyryanka,65.75,150.85,-24.5,85,100,11.79,1611979488,RU
bereda,43.2686,-7.5406,49.32,95,74,8.99,1611979489,ES
katherine,-14.4667,132.2667,86,66,90,12.66,1611979490,AU
cozumel,20.5083,-86.9458,73,76,7,1.01,1611979492,MX
ambulu,-8.345,113.6058,79.21,81,100,4.21,1611979468,ID
coquimbo,-29.9533,-71.3436,62.6,82,0,3.44,1611979494,CL
cuenca,-2.8833,-78.9833,59,94,90,8.05,1611979277,EC
pierre,44.3683,-100.351,26.6,86,90,12.66,1611979315,US
port blair,11.6667,92.75,83.61,68,26,10.18,1611979497,IN
duncan,34.5023,-97.9578,51.39,66,1,12.66,1611979457,US
lerwick,60.1545,-1.1494,33.8,75,14,9.22,1611979499,GB
asau,46.4333,26.4,41,58,100,5.53,1611979501,RO
vallenar,-28.5708,-70.7581,61.95,68,12,3,1611979501,CL
kidal,18.4411,1.4078,60.49,28,0,13.29,1611979504,ML
gravdal,68.1214,13.5031,23,74,20,2.3,1611979505,NO
nanlong,31.3533,106.0631,55.51,49,83,3.6,1611979506,CN
tiznit,29.5833,-9.5,57.85,47,0,0.94,1611979507,MA
sisak,45.4661,16.3783,36.81,93,53,5.75,1611979508,HR
moskovskiy,55.5991,37.355,25.43,86,75,6.71,1611979510,RU
killybegs,54.6333,-8.45,41,92,100,14,1611979511,IE
hithadhoo,-0.6,73.0833,81.88,76,78,12.82,1611979512,MV
churapcha,62.0025,132.4325,-43.24,75,61,1.23,1611979513,RU
yorkton,51.2167,-102.4677,17.6,93,90,10.36,1611979514,CA
omaruru,-21.4333,15.9333,70.88,53,37,3.09,1611979515,NA
wonthaggi,-38.6044,145.5913,69.55,75,34,15.3,1611979235,AU
mont-dore,-22.2833,166.5833,86,58,0,21.85,1611979518,NC
ishigaki,24.3448,124.1572,66.2,48,75,11.5,1611979519,JP
christchurch,-43.5333,172.6333,65.86,42,11,5.75,1611979422,NZ
naze,28.3667,129.4833,57.2,54,75,11.5,1611979503,JP
castro,-24.7911,-50.0119,62.58,95,100,3.09,1611979382,BR
bukama,-9.2,25.85,67.05,92,72,1.74,1611979523,CD
taft,31.7471,54.2088,59,33,20,13.8,1611979524,IR
ucluelet,48.9329,-125.5528,42.01,90,100,4,1611979357,CA
hurghada,27.2574,33.8129,51.8,46,0,9.22,1611979527,EG
cody,44.5263,-109.0565,36.61,51,1,4.61,1611979528,US
agirish,61.9247,63.0231,-15.54,88,100,8.9,1611979529,RU
mandalgovi,45.7625,106.2708,21.6,86,60,17.36,1611979530,MN
athens,37.9795,23.7162,51.46,87,20,7.52,1611979170,GR
pemberton,50.3164,-122.8027,35.6,93,100,2.3,1611979532,CA
beipiao,41.7919,120.7792,13.51,72,0,9.13,1611979534,CN
leshukonskoye,64.8989,45.7622,14.79,96,100,9.44,1611979535,RU
luanda,-8.8368,13.2343,78.8,83,40,6.91,1611979258,AO
lancaster,40.2504,-76.2499,23.67,60,36,1.99,1611979537,US
remontnoye,46.5614,43.6501,33.4,93,95,11.18,1611979538,RU
stornoway,58.2093,-6.3865,37.4,70,82,8.05,1611979539,GB
denpasar,-8.65,115.2167,84.2,79,20,10.36,1611979319,ID
awjilah,29.1081,21.2869,53.96,70,0,11.12,1611979542,LY
filingue,14.3521,3.3168,67.68,23,30,12.68,1611979543,NE
derzhavinsk,51.1,66.3167,16.29,92,79,11.05,1611979544,KZ
baker city,44.7749,-117.8344,31.57,80,1,5.75,1611979545,US
marzuq,14.4,46.4667,59.16,31,0,0.94,1611979426,YE
liling,27.6667,113.5,51.8,62,0,2.24,1611979547,CN
beloha,-25.1667,45.05,80.94,70,0,5.08,1611979549,MG
mananara,-16.1667,49.7667,76.82,88,19,2.64,1611979550,MG
narsaq,60.9167,-46.05,41,33,75,34.52,1611979551,GL
roald,62.5833,6.1333,30.81,75,75,9.22,1611979552,NO
tocopilla,-22.092,-70.1979,66.69,56,0,3.47,1611979553,CL
alofi,-19.0595,-169.9187,80.6,89,100,8.05,1611979550,NU
guerrero negro,27.9769,-114.0611,59.79,73,4,16.37,1611979555,MX
chimoio,-19.1164,33.4833,67.51,100,95,0.72,1611979401,MZ
sonoita,31.85,-112.8333,48,91,72,2.73,1611979558,MX
klaksvik,62.2266,-6.589,32,69,75,10.36,1611979559,FO
san felipe,10.3399,-68.7425,69.42,91,94,4.29,1611979560,VE
leh,34.1667,77.5833,3.63,67,0,1.77,1611979388,IN
traverse city,44.7631,-85.6206,10.4,85,1,4.36,1611979562,US
mocuba,-16.8392,36.9856,74.3,98,99,1.28,1611979564,MZ
santa cruz,-17.8,-63.1667,75.2,88,75,12.66,1611979565,BO
norman wells,65.282,-126.8329,-34.6,74,40,2.3,1611979566,CA
cabra,37.4725,-4.4421,52.02,100,90,6.91,1611979567,ES
bilibino,68.0546,166.4372,-24.18,80,0,4.54,1611979568,RU
orlik,52.5178,99.825,10.11,88,86,7.54,1611979570,RU
bagdarin,54.4333,113.6,-20.04,79,58,1.61,1611979571,RU
carutapera,-1.195,-46.02,79.41,82,99,8.99,1611979572,BR
chernoistochinsk,57.7364,59.8719,6.96,95,100,5.21,1611979573,RU
kimberley,-28.7323,24.7623,59,88,0,2.3,1611979574,ZA
nizhniy kuranakh,58.8353,125.4869,-29.29,80,100,1.16,1611979575,RU
pochutla,15.7432,-96.4661,78.8,83,75,6.91,1611979303,MX
romny,50.751,33.4747,22.82,97,72,10.8,1611979578,UA
kamphaeng phet,16.25,99.5,82.89,42,65,10.87,1611979579,TH
port hardy,50.6996,-127.4199,41.7,87,90,17.27,1611979508,CA
owando,-0.4819,15.8999,72.25,95,100,4.72,1611979581,CG
griffith,41.5284,-87.4237,27.81,69,1,6.91,1611979344,US
malmyzh,56.5205,50.6818,23,98,100,8.37,1611979584,RU
oktyabrskiy,54.4815,53.471,23.81,98,89,5.88,1611979429,RU
plouzane,48.3833,-4.6167,51.8,93,90,20.71,1611979376,FR
abu samrah,35.3029,37.1841,42.21,74,10,12.53,1611979587,SY
filadelfia,39.9523,-75.1638,20.32,53,20,11.5,1611979511,US
kashmor,28.4333,69.5833,61.48,25,0,5.41,1611979424,PK
calvinia,-31.4707,19.776,52.83,76,0,3.67,1611979591,ZA
saint-joseph,-21.3667,55.6167,80.69,48,0,5.75,1611979592,RE
kenai,60.5544,-151.2583,18.07,93,90,3.44,1611979492,US
hayvoron,48.3396,29.8679,25.07,96,100,6.55,1611979594,UA
villaviciosa,43.4813,-5.4357,57.99,79,100,5.99,1611979595,ES
bay city,43.5945,-83.8889,12.56,73,1,3.44,1611979596,US
ozu,33.5,132.55,47.73,46,40,6.91,1611979597,JP
bosaso,11.2842,49.1816,71.85,73,3,2.77,1611979598,SO
nanortalik,60.1432,-45.2371,32.4,91,99,8.03,1611979337,GL
usakos,-22,15.6,70.45,52,15,3.33,1611979601,NA
qasigiannguit,68.8193,-51.1922,1.4,55,0,6.91,1611979602,GL
geraldton,-28.7667,114.6,102.2,16,0,9.22,1611979444,AU
orgovany,46.7509,19.4726,40.32,81,0,6.91,1611979604,HU
xining,36.6167,101.7667,22.35,66,100,3.27,1611979605,CN
mujiayingzi,42.1167,118.7833,13.68,89,7,2.57,1611979606,CN
mitsamiouli,-11.3847,43.2844,82.4,73,85,9.48,1611979608,KM
kieta,-6.2167,155.6333,85.39,70,69,14.16,1611979609,PG
orlea,43.75,24.3833,37.4,93,90,4.61,1611979610,RO
yetkul,54.8221,61.588,5,85,40,6.71,1611979611,RU
arman,59.7,150.1667,-12.17,79,45,12.95,1611979612,RU
bud,39.447,-86.1758,26.29,79,63,6.73,1611979613,US
grand-santi,4.25,-54.3833,71.69,97,89,2.1,1611979615,GF
biltine,14.5333,20.9167,66.22,25,8,17.16,1611979616,TD
hambantota,6.1241,81.1185,80.6,89,20,9.22,1611979617,LK
choya,52.0108,86.5467,23.5,96,100,4.5,1611979618,RU
quatre cocos,-20.2078,57.7625,81.54,89,40,8.05,1611979619,MU
souillac,-20.5167,57.5167,78.8,89,40,8.05,1611979385,MU
kismayo,-0.3582,42.5454,77.05,79,34,13.69,1611979622,SO
morrinhos,-17.7311,-49.0994,67.73,77,96,1.88,1611979623,BR
fukue,32.6881,128.8419,46.4,57,75,4.61,1611979461,JP
boende,-0.2167,20.8667,72.64,91,76,2.46,1611979625,CD
seoul,37.5683,126.9778,32.72,56,20,2.3,1611979361,KR
sioux lookout,50.1001,-91.917,8.6,72,75,3.44,1611979367,CA
thaba nchu,-29.2093,26.839,60.28,71,53,6.33,1611979630,ZA
san quintin,30.4833,-115.95,55.8,77,1,7.2,1611979631,MX
farafangana,-22.8167,47.8333,78.35,85,5,6.33,1611979632,MG
manaure,11.7751,-72.4445,76.3,74,17,10.98,1611979633,CO
arua,3.0201,30.9111,69.33,51,10,2.42,1611979635,UG
goundam,16.4145,-3.6708,66.61,23,0,11.18,1611979637,ML
llanes,43.4198,-4.7549,55.99,98,100,7.61,1611979443,ES
cabo san lucas,22.8909,-109.9124,66.69,82,1,4.61,1611979419,MX
sambava,-14.2667,50.1667,76.64,87,8,3.89,1611979640,MG
champerico,14.3,-91.9167,62.38,90,58,5.14,1611979515,GT
dorchester,33.1002,-80.3831,32.34,86,1,3.78,1611979642,US
agarak,39.2068,46.5446,36.19,91,100,0.78,1611979643,AM
dingle,10.9995,122.6711,77.18,85,100,17.18,1611979470,PH
leningradskiy,69.3833,178.4167,-22.16,85,100,7.87,1611979646,RU
guiratinga,-16.3494,-53.7583,71.31,88,73,3.2,1611979647,BR
norrtalje,59.758,18.705,23.63,88,100,11.01,1611979648,SE
katsuura,35.1333,140.3,46.2,21,20,13.8,1611979650,JP
paris,48.8534,2.3488,47.12,93,90,8.05,1611979534,FR
okhotsk,59.3833,143.3,-5.71,85,0,10.2,1611979386,RU
nambucca heads,-30.65,153,79.97,69,75,9.22,1611979654,AU
kotelnich,58.3089,48.348,22.87,98,100,8.77,1611979655,RU
port elizabeth,-33.918,25.5701,57.2,88,0,4.61,1611979657,ZA
parit buntar,5.1267,100.4932,84.74,58,20,6.91,1611979658,MY
liepaja,56.5419,21.0367,30.2,100,90,8.05,1611979659,LV
lorengau,-2.0226,147.2712,83.48,80,100,9.31,1611979660,PG
nuuk,64.1835,-51.7216,24.4,93,20,8.05,1611979629,GL
san patricio,28.017,-97.5169,66.74,77,90,16.11,1611979662,US
vestmannaeyjar,63.4427,-20.2734,35.22,82,100,7.9,1611979663,IS
abapo,-18.8333,-63.4667,66.34,100,100,2.57,1611979665,BO
mamaku,-38.1,176.0833,71.33,42,36,5.99,1611979666,NZ
sale,34.0389,-6.8166,57.56,94,75,6.22,1611979667,MA
kishtwar,33.3167,75.7667,40.42,48,0,3.2,1611979668,IN
camana,-16.6228,-72.7111,69.42,76,28,6.96,1611979669,PE
lai,9.3952,16.2989,66.63,23,0,4.41,1611979670,TD
mon,26.75,95.1,64.24,68,0,3.24,1611979671,IN
hof,50.3167,11.9167,37.99,95,100,24,1611979673,DE
chuy,-33.6971,-53.4616,67.24,92,2,1.21,1611979416,UY
narasannapeta,18.4167,84.05,79.86,59,0,2.15,1611979675,IN
awbari,26.5921,12.7805,48.24,63,0,3.8,1611979676,LY
novhorodka,48.3651,32.6578,26.31,86,0,4.47,1611979677,UA
salalah,17.0151,54.0924,69.8,64,75,6.91,1611979678,OM
broome,42.2506,-75.833,7.88,85,90,5.75,1611979679,US
zhigansk,66.7697,123.3711,-41.58,80,100,1.99,1611979681,RU
sao jose da coroa grande,-8.8978,-35.1478,77.47,82,100,9.06,1611979682,BR
sabla,12.7525,4.7077,66.47,25,0,13.09,1611979683,NG
voi,-3.3945,38.563,69.96,89,44,4.41,1611979684,KE
laksham,23.2472,91.1425,73.42,32,1,6.38,1611979685,BD
zhezkazgan,47.8043,67.7144,15.06,94,100,12.41,1611979686,KZ
kahului,20.8947,-156.47,69.22,73,40,17.27,1611979621,US
tilichiki,60.4667,166.1,-1.25,94,100,11.81,1611979689,RU
fayaoue,-20.65,166.5333,78.91,75,49,21.43,1611979571,NC
felipe carrillo puerto,19.5833,-88.05,64.58,85,0,3.33,1611979691,MX
ratangarh,28.0833,74.6,62.65,25,0,4.5,1611979692,IN
san juan,-31.5375,-68.5364,82.72,25,0,12.88,1611979509,AR
atar,20.5169,-13.0499,64.65,27,47,11.56,1611979694,MR
isangel,-19.55,169.2667,87.8,62,40,11.5,1611979481,VU
bend,44.0582,-121.3153,33.39,64,1,6.91,1611979445,US
campbell river,50.0163,-125.2446,39.87,93,90,10.36,1611979698,CA
novaya igirma,57.1334,103.9112,-25.49,83,100,6.93,1611979699,RU
rosetta,31.4044,30.4164,51.8,76,40,5.75,1611979700,EG
calama,-22.4667,-68.9333,50,14,0,11.5,1611979701,CL
simplicio mendes,-7.8539,-41.9103,71.83,84,100,3.38,1611979702,BR
maloy,61.9353,5.1136,33.15,86,90,10.36,1611979499,NO
camacupa,-12.0167,17.4833,59.56,92,91,1.61,1611979705,AO
amapa,1,-52,71.82,98,95,2.35,1611979706,BR
beringovskiy,63.05,179.3167,-18.15,83,0,10.27,1611979707,RU
aripuana,-9.1667,-60.6333,73.15,96,100,0.81,1611979708,BR
berlevag,70.8578,29.0864,24.93,95,100,16.89,1611979709,NO
rorvik,64.8621,11.2373,25.52,96,99,5.41,1611979710,NO
khao wong,16.7001,104.0902,73.71,60,1,5.75,1611979711,TH
lafayette,30.2335,-92.0668,47.97,93,1,5.91,1611979713,US
dalvik,65.9702,-18.5286,26.6,86,90,17.27,1611979714,IS
garwa,24.1833,83.8167,61.02,33,0,6.49,1611979715,IN
morro bay,35.3658,-120.8499,44.92,90,41,2.33,1611979716,US
andros town,24.7,-77.7667,66.2,68,75,9.22,1611979717,BS
tambopata,-12.7333,-69.1833,73,99,100,1.43,1611979718,PE
san lawrenz,36.0553,14.204,58.35,88,0,18.41,1611979720,MT
coaticook,45.1334,-71.7991,3.2,78,100,1.14,1611979721,CA
esperance,-33.8667,121.9,75.2,43,0,13.8,1611979722,AU
terrace bay,48.7834,-87.1,-0.4,85,26,5.75,1611979723,CA
winneba,5.3511,-0.6231,77,78,0,6.91,1611979725,GH
brownsville,25.9018,-97.4975,64.67,82,1,5.75,1611979697,US
vao,-22.6667,167.4833,76.28,75,31,19.93,1611979727,NC
sangar,63.9242,127.4739,-43.22,76,100,3.02,1611979728,RU
guigue,10.0853,-67.7792,67.8,90,87,4.36,1611979729,VE
inhambane,-23.865,35.3833,71.6,100,75,3.67,1611979462,MZ
taganak,6.0833,118.3,84.09,79,40,14.97,1611979731,PH
grand gaube,-20.0064,57.6608,84,73,2,7,1611979733,MU
ancud,-41.8697,-73.8203,47.3,81,0,9.22,1611979734,CL
chapadinha,-3.7417,-43.3603,72.95,98,99,2.28,1611979713,BR
sur,22.5667,59.5289,67.75,41,0,6.49,1611979736,OM
marawi,7.9986,124.2928,81,79,92,5.01,1611979539,PH
padang,-0.9492,100.3543,84.2,70,40,3.44,1611979738,ID
yermakovskoye,53.2831,92.4003,24.78,91,100,19.66,1611979739,RU
palmeirais,-5.9778,-43.0633,73.78,84,100,2.35,1611979741,BR
marrakesh,31.6315,-8.0083,51.8,71,0,4.61,1611979526,MA
abaete,-19.16,-45.4458,69.35,69,100,2.39,1611979743,BR
takaka,-40.85,172.8,60.01,77,48,3,1611979744,NZ
manokwari,-0.8667,134.0833,82.92,65,93,2.44,1611979745,ID
vuktyl,63.8567,57.3094,-9.06,87,100,7.61,1611979747,RU
kovernino,57.1253,43.8142,22.77,97,97,10.25,1611979748,RU
xucheng,20.35,110.1288,68,83,75,15.66,1611979749,CN
cap malheureux,-19.9842,57.6142,84,73,1,7,1611979467,MU
sisimiut,66.9395,-53.6735,7.61,87,2,9.93,1611979751,GL
jiaojiang,28.6803,121.4428,55.31,77,0,5.93,1611979752,CN
manakara,-22.1333,48.0167,77.31,86,6,3.58,1611979753,MG
krk,45.0258,14.5731,47.55,87,75,2.3,1611979755,HR
deputatskiy,69.3,139.9,-29.09,87,100,2.3,1611979756,RU
nara,34.6851,135.8049,44.64,52,20,12.66,1611979555,JP
yerbogachen,61.2767,108.0108,-38.29,79,53,7.14,1611979758,RU
aswan,24.0934,32.907,47.95,57,0,7.56,1611979759,EG
boralday,43.3578,76.8594,12.2,85,0,4.47,1611979760,KZ
balkanabat,39.5108,54.3671,49.14,50,100,0.78,1611979761,TM
kaitangata,-46.2817,169.8464,57.99,69,28,8.99,1611979762,NZ
chicama,-7.8447,-79.1469,72.97,70,79,5.1,1611979764,PE
beoumi,7.6736,-5.5764,75.2,41,9,9.22,1611979765,CI
pacifica,37.6138,-122.4869,46.51,76,20,4.61,1611979648,US
labuhan,-6.8844,112.2051,79,85,100,17.94,1611979767,ID
romanovo,52.6182,81.2271,11.25,96,100,6.26,1611979768,RU
meadow lake,34.8014,-106.5436,44.19,45,75,12.66,1611979770,US
faanui,-16.4833,-151.75,81.23,67,100,4.76,1611979771,PF
yumen,40.2833,97.2,29.62,67,0,23.53,1611979772,CN
ust-kuyga,70.0167,135.6,-38.36,78,100,0.89,1611979773,RU
bathsheba,13.2167,-59.5167,78.8,69,40,14.97,1611979774,BB
krasnyy chikoy,50.3643,108.7512,8.82,91,100,3.69,1611979775,RU
joshimath,30.5667,79.5667,47.14,32,0,3.53,1611979776,IN
umea,63.8284,20.2597,5,85,90,12.66,1611979777,SE
kiunga,-6.1219,141.2906,79.75,95,90,6.62,1611979779,PG
haines junction,60.7522,-137.5108,-11.2,84,100,1.52,1611979780,CA
paso de los toros,-32.8167,-56.5167,72.05,55,24,3.42,1611979781,UY
vostok,46.4856,135.8833,-4.9,87,99,4.54,1611979782,RU
fort nelson,58.8053,-122.7002,-13,77,75,0.58,1611979525,CA
nabire,-3.3667,135.4833,77.67,86,100,1.88,1611979784,ID
poum,-20.2333,164.0167,80.6,73,28,8.66,1611979786,NC
salym,60.0625,71.4789,-22.14,85,90,7.07,1611979787,RU
dossor,47.5272,52.9811,28.62,97,20,7.45,1611979788,KZ
taupo,-38.6833,176.0833,71.01,42,22,5.99,1611979703,NZ
porto novo,6.4965,2.6036,78.8,89,20,3.44,1611979767,BJ
vzmorye,54.6961,20.2361,32,93,75,13.42,1611979607,RU
avera,33.194,-82.5271,32.02,86,1,4.18,1611979793,US
gold coast,-28,153.4333,83.43,61,90,9.22,1611979678,AU
la asuncion,11.0333,-63.8628,74.84,88,77,10.8,1611979795,VE
bairiki,1.3292,172.9752,84.2,70,20,10.36,1611979796,KI
indri,29.88,77.0711,54.12,42,0,8.59,1611979797,IN
san ramon,37.7799,-121.978,43.05,81,1,1.03,1611979799,US
tual,-5.6667,132.75,83.52,77,56,15.26,1611979800,ID
esna,25.2934,32.554,46.4,66,0,2.3,1611979801,EG
vangaindrano,-23.35,47.6,76.75,90,3,3.78,1611979576,MG
kamenka,51.3223,42.7678,33.01,95,100,24.74,1611979804,RU
saint leonard,47.173,-67.9247,5.34,72,90,12.66,1611979655,CA
mindelo,16.8901,-24.9804,71.6,78,90,12.66,1611979807,CV
redlands,34.0556,-117.1825,42.15,81,90,2.06,1611979660,US
kruisfontein,-34.0033,24.7314,55,91,0,4.88,1611979810,ZA
buraydah,26.326,43.975,48.2,71,0,4.61,1611979811,SA
sola,-13.8833,167.55,87.8,79,90,5.75,1611979812,VU
dongsheng,39.8161,109.9776,28.08,73,0,20.07,1611979813,CN
sao joao da barra,-21.6403,-41.0511,77.29,81,22,20.74,1611979814,BR
marsabit,2.3284,37.9899,62.22,97,8,13.94,1611979816,KE
cap estate,14.0833,-60.95,76.03,88,75,6.91,1611979817,LC
lahaina,20.8783,-156.6825,71.01,73,40,17.27,1611979818,US
monroe,43.1501,-77.6831,15.44,73,90,9.22,1611979688,US
tongling,30.95,117.7833,54.66,41,41,1.12,1611979820,CN
wanxian,30.8039,108.3897,58.08,47,91,0.63,1611979822,CN
opuwo,-18.0607,13.84,68.56,61,95,4.54,1611979823,NA
thiers,45.8333,3.5,44.6,87,90,13.8,1611979824,FR
ladwa,29.9944,77.0444,53.74,42,0,8.3,1611979826,IN
paramonga,-10.6667,-77.8333,70.16,82,99,4.74,1611979827,PE
fairbanks,64.8378,-147.7164,-6.03,77,1,2.39,1611979828,US
isla vista,34.4133,-119.861,44.96,93,20,3.06,1611979829,US
ustupo,9.1333,-77.9333,78.55,76,54,14.74,1611979831,PA
koungou,-12.7336,45.2042,80.6,83,90,4.61,1611979832,YT
tura,25.5198,90.2201,68.65,36,0,3.44,1611979833,IN
nytva,57.9404,55.334,24.8,74,75,11.18,1611979835,RU
liaoyang,41.2719,123.1731,12.2,37,0,8.95,1611979836,CN
tommot,58.9564,126.2925,-28.48,79,100,0.74,1611979837,RU
sivas,39.7916,37.0019,12.2,85,0,5.75,1611979838,TR
bintulu,3.1667,113.0333,82.2,89,40,5.75,1611979839,MY
thunder bay,48.4001,-89.3168,-0.9,77,75,2.3,1611979646,CA
hurup,56.7494,8.4195,24.33,88,36,8.7,1611979842,DK
aksarka,66.5606,67.7975,-41.04,79,55,3.42,1611979843,RU
chabahar,25.2919,60.643,68.04,52,0,4.5,1611979844,IR
saint john,45.2727,-66.0677,16.86,67,90,17.27,1611979823,CA
lasa,46.6166,10.7002,29.84,86,90,5.75,1611979847,IT
coihaique,-45.5752,-72.0662,44.6,81,0,2.3,1611979848,CL
otane,-39.8833,176.6333,60.01,64,81,7,1611979849,NZ
palmer,42.1584,-72.3287,7.77,61,1,6.91,1611979806,US
port hawkesbury,45.6169,-61.3485,26.58,74,40,11.5,1611979851,CA
otsuki,35.6,138.9333,44.56,18,1,4.61,1611979853,JP
chemodanovka,53.2316,45.2474,28.99,99,100,14.92,1611979854,RU
veraval,20.9,70.3667,70.61,25,82,12.95,1611979855,IN
saint-francois,46.4154,3.9054,46.22,76,100,10.36,1611979856,FR
aleppo,36.25,37.5,38.41,84,0,7.78,1611979857,SY
bida,9.0833,6.0167,72.39,21,52,3.62,1611979858,NG
nemuro,43.3236,145.575,30.2,86,75,8.05,1611979860,JP
balkhash,46.844,74.9804,10.4,85,0,11.18,1611979861,KZ
kambove,-10.8764,26.5969,58.77,93,94,2.17,1611979862,CD
moyale,3.5167,39.0584,65.73,36,0,5.17,1611979863,KE
puerto leguizamo,-0.1934,-74.7819,73.65,73,49,2.06,1611979864,CO
moron,-34.6534,-58.6198,74.82,81,1,1.92,1611979865,AR
novomykolayivka,47.9781,35.9102,32,93,97,3.69,1611979867,UA
ambunti,-4.2365,142.8448,88.88,63,100,4.94,1611979868,PG
araure,9.5601,-69.2148,73.08,68,82,6.93,1611979869,VE
khatra,22.9833,86.85,68.77,25,2,9.48,1611979870,IN
villa carlos paz,-31.4241,-64.4978,69.73,95,2,8.01,1611979582,AR
belaya gora,68.5333,146.4167,-28.98,85,100,3.29,1611979873,RU
halifax,44.6453,-63.5724,26.47,86,100,11.5,1611979640,CA
chapais,49.7834,-74.8492,-0.4,78,90,11.5,1611979875,CA
bethalto,38.9092,-90.0407,32.14,80,1,9.22,1611979600,US
hervey bay,-25.2986,152.8535,84.13,61,75,17.27,1611979877,AU
puri,19.8,85.85,71.6,78,20,4.61,1611979879,IN
pisz,53.6274,21.8125,19.4,100,97,2.3,1611979880,PL
maniitsoq,65.4167,-52.9,19.13,75,0,5.84,1611979878,GL
hofn,64.2539,-15.2082,31.5,81,76,4.76,1611979882,IS
guane,22.2025,-84.0875,63.54,77,16,9.66,1611979883,CU
san jeronimo,-11.9472,-75.2829,44.01,81,100,6.76,1611979884,PE
faya,18.3851,42.4509,49.93,31,0,0.87,1611979885,SA
gizo,-8.103,156.8419,86.41,72,80,14.76,1611979887,SB
panaba,21.2833,-88.2667,64.08,82,0,8.3,1611979888,MX
lambare,-25.3468,-57.6065,77,94,0,4.61,1611979889,PY
kawalu,-7.3817,108.2082,82.71,64,100,1.52,1611979890,ID
abu kamal,34.4506,40.9171,44.87,70,10,10.76,1611979891,SY
cooma,-36.2333,149.1333,71.6,60,75,3.44,1611979892,AU
zeya,53.75,127.2667,-14.53,80,33,2.89,1611979893,RU
surman,32.7567,12.5716,59.56,46,0,14.83,1611979895,LY
adrar,20.5022,-10.0711,61.27,28,0,9.98,1611979896,MR
lucapa,-8.4192,20.7447,63.46,99,100,2.06,1611979897,AO
graaff-reinet,-32.2522,24.5308,62.62,76,23,1.7,1611979898,ZA
visnes,59.3556,5.2242,29.79,93,75,11.5,1611979899,NO
gladstone,-23.85,151.25,86,58,34,17.27,1611979900,AU
moussoro,13.6408,16.4901,63.3,24,46,15.3,1611979902,TD
gacko,43.1672,18.5353,39.11,100,20,5.75,1611979903,BA
tahta,26.7693,31.5021,43.75,57,0,3.44,1611979904,EG
novosheshminsk,55.0651,51.2338,20.86,97,95,8.16,1611979905,RU
aklavik,68.2191,-135.0107,-30.12,75,40,3.44,1611979906,CA
high level,58.5169,-117.136,-18.4,83,1,3.44,1611979908,CA
lima,-12.0432,-77.0282,70.95,83,0,9.22,1611979856,PE
vestnes,62.6264,7.0884,27.81,93,90,8.05,1611979910,NO
pangkalanbuun,-2.6833,111.6167,80.55,76,100,5.23,1611979911,ID
miyazu,35.5333,135.1833,33.8,93,75,2.3,1611979912,JP
hearst,49.6835,-83.6665,-7.6,84,96,2.64,1611979913,CA
greenville,35.6127,-77.3663,26.22,80,1,4.12,1611979914,US
sinnai,39.3042,9.2036,56.1,87,0,5.75,1611979863,IT
tabory,58.5198,64.5495,9.45,95,100,9.62,1611979917,RU
nairn,57.5809,-3.8797,29.1,100,89,8.57,1611979918,GB
iowa city,41.6611,-91.5302,28.15,74,1,10.36,1611979660,US
minnedosa,50.2453,-99.8436,19.4,86,90,11.5,1611979921,CA
