city,latitude,longitude,temperature,humidity,cloudiness,wind,datetime,country
rikitea,-23.1203,-134.9692,78.64,80,10,12.24,1620145198,PF
touros,-5.1989,-35.4608,82.4,74,75,11.5,1620145199,BR
vostok,46.4856,135.8833,38.79,92,100,5.93,1620145201,RU
tessalit,20.1986,1.0114,106.77,2,0,6.64,1620145202,ML
flinders,-34.5833,150.8552,58.57,94,100,1.01,1620145203,AU
nanortalik,60.1432,-45.2371,43.16,56,76,12.37,1620145205,GL
cape town,-33.9258,18.4232,65.66,77,40,10.36,1620145082,ZA
santa rosa,14.3122,121.1114,84.06,74,20,5.75,1620145207,PH
bengkulu,-3.8004,102.2655,77.36,89,100,4.59,1620145209,ID
faanui,-16.4833,-151.75,82.38,69,100,12.91,1620145210,PF
lebu,-37.6167,-73.65,57.06,56,7,6.08,1620145211,CL
kapaa,22.0752,-159.319,67.53,88,20,10.36,1620145213,US
inhambane,-23.865,35.3833,75.09,46,20,5.75,1620145214,MZ
krasnogorskoye,52.2953,86.1979,41.56,79,100,4.38,1620145215,RU
lagoa,39.05,-27.9833,62.89,85,97,9.57,1620145217,PT
ystad,55.4297,13.8204,48,87,75,14.97,1620145218,SE
saint george,37.1041,-113.5841,67.48,25,1,1.21,1620145220,US
ushuaia,-54.8,-68.3,46.4,66,75,25.32,1620145066,AR
pampas,-12.4,-74.9,59.43,52,100,6.35,1620145222,PE
butaritari,3.0707,172.7902,83.19,77,49,17,1620145223,KI
albany,42.6001,-73.9662,54.9,89,100,3.58,1620145032,US
fort nelson,58.8053,-122.7002,42.8,87,90,4.61,1620145226,CA
rio gallegos,-51.6226,-69.2181,44.6,57,0,23.02,1620145227,AR
winneba,5.3511,-0.6231,86,70,0,20.71,1620145228,GH
nishihara,26.1842,127.7558,73.31,88,40,14.97,1620145230,JP
busselton,-33.65,115.3333,61.83,93,100,4,1620145231,AU
sobolevo,54.4299,31.8996,45.39,62,98,15.05,1620145232,RU
punta arenas,-53.15,-70.9167,46.2,71,75,25.32,1620145234,CL
puerto boyaca,5.9758,-74.5885,86.83,57,70,1.21,1620145110,CO
vilhena,-12.7406,-60.1458,84.2,65,40,6.91,1620145236,BR
kodiak,57.79,-152.4072,39.2,87,90,8.05,1620145237,US
bluff,-46.6,168.3333,51.01,76,65,5.99,1620145239,NZ
saint-philippe,-21.3585,55.7679,74.16,83,90,5.75,1620145240,RE
castro,-24.7911,-50.0119,77.54,38,3,4.9,1620145241,BR
vaini,-21.2,-175.2,77,78,75,10.36,1620145243,TO
georgetown,5.4112,100.3354,79.45,94,20,4.61,1620145244,MY
torbay,47.6666,-52.7314,51.01,43,75,19.57,1620145245,CA
ponta do sol,32.6667,-17.1,64.06,49,40,17.27,1620145247,PT
mataura,-46.1927,168.8643,51.01,76,75,5.99,1620145248,NZ
tuatapere,-46.1333,167.6833,51.01,76,60,5.99,1620145251,NZ
yellowknife,62.456,-114.3525,33.4,37,1,11.5,1620145252,CA
cayenne,4.9333,-52.3333,82.17,69,40,13.8,1620145253,GF
chokurdakh,70.6333,147.9167,30.74,98,100,5.48,1620145254,RU
ternate,0.8,127.4,81.34,80,72,3.51,1620145256,ID
mamallapuram,12.6264,80.1722,86.49,62,20,5.75,1620145257,IN
puerto ayora,-0.7393,-90.3518,77.63,83,75,12.66,1620145087,EC
abong mbang,3.9833,13.1833,75.2,75,96,3.76,1620145260,CM
hasaki,35.7333,140.8333,54.07,94,0,5.75,1620145261,JP
san juan,-31.5375,-68.5364,54.01,49,100,17.72,1620145159,AR
tura,25.5198,90.2201,69.57,87,80,3.22,1620145263,IN
lompoc,34.6391,-120.4579,58.24,67,14,2.15,1620145265,US
jimenez,28.3333,-105.4,69.8,19,1,11.5,1620145266,MX
fukue,32.6881,128.8419,67.08,93,100,37.94,1620145267,JP
fort-shevchenko,44.5086,50.263,64.74,63,0,9.73,1620145269,KZ
antofagasta,-23.65,-70.4,70.39,52,0,6.91,1620145210,CL
asau,46.4333,26.4,61,16,6,4.9,1620145271,RO
hilo,19.7297,-155.09,62.37,73,40,4.88,1620145272,US
praia da vitoria,38.7333,-27.0667,68,64,20,3.24,1620145274,PT
osa,57.2829,55.4567,59.79,74,79,8.1,1620145275,RU
doctor phillips,28.4495,-81.4923,88.59,66,40,10.36,1620145276,US
eruwa,7.5333,3.4167,84.96,60,100,4.29,1620145278,NG
hobyo,5.3505,48.5268,85.69,68,99,13.2,1620145279,SO
hermanus,-34.4187,19.2345,64,78,15,10.45,1620145280,ZA
chuy,-33.6971,-53.4616,67.19,57,97,15.32,1620145282,UY
okhotsk,59.3833,143.3,32.32,89,9,4.21,1620145283,RU
saskylakh,71.9167,114.0833,29.05,97,100,5.77,1620145285,RU
woodstock,43.1334,-80.7497,51.94,100,100,3.44,1620145286,CA
new norfolk,-42.7826,147.0587,44.31,83,80,2.93,1620145287,AU
dikson,73.5069,80.5464,29.52,92,100,4.97,1620145289,RU
oriximina,-1.7656,-55.8661,80.94,78,100,3.36,1620145290,BR
souillac,-20.5167,57.5167,78.8,89,40,3.44,1620145291,MU
hobart,-42.8794,147.3294,44.51,81,49,10.36,1620145293,AU
talnakh,69.4865,88.3972,26.22,93,99,4.03,1620145294,RU
bela vista do paraiso,-22.9967,-51.1906,84.2,39,0,4.61,1620145295,BR
tuktoyaktuk,69.4541,-133.0374,19.4,100,90,4.61,1620145297,CA
port-gentil,-0.7193,8.7815,86,74,75,12.88,1620145298,GA
norman wells,65.282,-126.8329,35.6,75,75,8.05,1620145299,CA
saldanha,-33.0117,17.9442,64.4,72,21,6.91,1620145301,ZA
nikolskoye,59.7035,30.7861,36.12,81,90,11.18,1620145302,RU
ribeira grande,38.5167,-28.7,66.2,82,75,5.75,1620145304,PT
qaanaaq,77.484,-69.3632,29.23,72,97,4.74,1620145305,GL
jaisalmer,26.9147,70.9181,94.89,17,15,11.27,1620145306,IN
iqaluit,63.7506,-68.5145,30.09,93,20,3.44,1620145215,CA
tiksi,71.6872,128.8694,26.01,93,100,4.38,1620145309,RU
katsuura,35.1333,140.3,64.56,68,0,11.5,1620145310,JP
chicama,-7.8447,-79.1469,66.2,82,73,11.5,1620145311,PE
jalapa,19.5333,-96.9167,85.48,25,0,4.45,1620145170,MX
avarua,-21.2078,-159.775,75.2,73,75,5.75,1620145314,CK
sulphur,30.2366,-93.3774,83.1,78,90,9.22,1620145315,US
quatre cocos,-20.2078,57.7625,78.91,89,40,3.44,1620145316,MU
traverse city,44.7631,-85.6206,45.3,87,90,6.91,1620145162,US
kalininsk,51.5,44.4758,48.85,61,100,10.71,1620145319,RU
charters towers,-20.1,146.2667,68.36,69,61,3.44,1620145320,AU
yar-sale,66.8333,70.8333,17.94,95,11,5.28,1620145322,RU
guerrero negro,27.9769,-114.0611,64.42,66,0,6.78,1620145323,MX
east london,-33.0153,27.9116,66.2,72,0,2.3,1620145324,ZA
severo-kurilsk,50.6789,156.125,35.78,95,100,12.62,1620145326,RU
mar del plata,-38.0023,-57.5575,56.35,58,40,16.11,1620145078,AR
ilulissat,69.2167,-51.1,41,45,1,6.91,1620145328,GL
los llanos de aridane,28.6585,-17.9182,65.66,56,75,14.97,1620145329,ES
cidreira,-30.1811,-50.2056,80.64,54,88,11.59,1620145331,BR
namibe,-15.1961,12.1522,78.8,69,20,17.27,1620145332,AO
bredasdorp,-34.5322,20.0403,68,68,58,9.22,1620145333,ZA
hithadhoo,-0.6,73.0833,84.76,64,81,3.91,1620145335,MV
seoul,37.5683,126.9778,57.2,94,90,8.05,1620145152,KR
naze,28.3667,129.4833,67.66,88,99,18.48,1620145337,JP
atuona,-9.8,-139.0333,80.37,76,21,18.75,1620145338,PF
koslan,63.4564,48.8989,33.84,83,100,12.19,1620145340,RU
egvekinot,66.3167,-179.1667,7.54,84,24,6.82,1620145341,RU
husavik,66.0449,-17.3389,39.2,41,20,6.91,1620145198,IS
port elizabeth,-33.918,25.5701,68,77,0,6.91,1620145302,ZA
kamariotissa,40.4833,25.4667,70.34,49,0,5.75,1620145345,GR
arraial do cabo,-22.9661,-42.0278,82.15,65,20,16.11,1620145285,BR
canutama,-6.5339,-64.3831,82.72,80,99,1.25,1620145348,BR
mahebourg,-20.4081,57.7,78.8,89,40,3.44,1620145349,MU
mahibadhoo,3.7833,72.9667,85.24,66,90,2.48,1620145351,MV
san policarpo,12.1791,125.5072,81.19,85,94,13.22,1620145352,PH
parkes,-33.1333,148.1833,54,92,96,5.44,1620145354,AU
matagami,49.7502,-77.6328,48.2,46,90,8.05,1620145355,CA
nianzishan,47.5167,122.8833,44.44,53,48,8.3,1620145356,CN
cruz,-2.9178,-40.1717,82.35,77,52,9.66,1620145358,BR
leningradskiy,69.3833,178.4167,5.32,85,61,5.75,1620145360,RU
sambava,-14.2667,50.1667,79.07,81,29,0.67,1620145361,MG
machilipatnam,16.1667,81.1333,82.4,83,40,2.3,1620145363,IN
jamestown,42.097,-79.2353,65.3,88,90,5.75,1620145238,US
skjervoy,70.0311,20.9714,39.2,45,0,10.36,1620145365,NO
san patricio,28.017,-97.5169,83.01,84,90,9.22,1620145367,US
high level,58.5169,-117.136,41,36,75,9.22,1620145368,CA
the valley,18.217,-63.0578,83.75,69,20,18.41,1620145269,AI
lata,40.1629,-8.3327,65.14,40,3,7,1620145370,PT
rudnichnyy,59.617,52.4703,54.54,79,100,12.59,1620145372,RU
lasa,46.6166,10.7002,59.52,37,20,9.22,1620145373,IT
grandola,38.1772,-8.5668,68,70,4,8.99,1620145375,PT
karratha,-20.7377,116.8463,80.02,72,98,18.97,1620145376,AU
north vanlaiphai,23.1333,93.0667,58.6,96,100,2.21,1620145378,IN
goure,13.9835,10.2704,104,3,51,8.01,1620145379,NE
vestmannaeyjar,63.4427,-20.2734,42.8,61,20,11.5,1620145380,IS
upernavik,72.7868,-56.1549,33.53,76,36,6.11,1620145382,GL
general roca,-39.0333,-67.5833,53.6,40,0,5.75,1620145383,AR
vagay,57.9375,69.0217,62.08,52,44,12.75,1620145384,RU
port alfred,-33.5906,26.891,68.86,69,0,2.21,1620145386,ZA
fort abbas,29.1925,72.8536,93.33,20,45,6.78,1620145387,PK
san quintin,30.4833,-115.95,65.1,70,12,5.55,1620145389,MX
broome,42.2506,-75.833,64.22,88,90,4.61,1620145390,US
pangnirtung,66.1451,-65.7125,35.6,75,1,4.61,1620145391,CA
pevek,69.7008,170.3133,9.57,76,15,8.93,1620145392,RU
fairbanks,64.8378,-147.7164,43.02,52,75,4.47,1620145236,US
barrow,71.2906,-156.7887,15.8,73,90,4.63,1620145395,US
zharkent,44.1628,80,70.88,19,0,7.27,1620145396,KZ
kaitangata,-46.2817,169.8464,51.01,60,69,3,1620145397,NZ
lakki marwat,32.6079,70.9114,88.41,28,92,7.94,1620145399,PK
kulaman,6.4594,124.0892,81.41,80,99,2.48,1620145400,PH
camacha,33.0833,-16.3333,66.2,48,20,14.97,1620145401,PT
linfen,36.0889,111.5189,60.58,16,47,4.47,1620145403,CN
jiwani,25.05,61.7417,82.96,80,48,4.36,1620145404,PK
kagadi,0.9606,30.7967,69.42,77,75,1.12,1620145405,UG
coroico,-16.1889,-67.7271,60.8,20,20,8.05,1620145407,BO
bambous virieux,-20.3428,57.7575,78.89,89,40,3.44,1620145408,MU
whitehorse,60.7161,-135.0538,38.84,65,75,13.8,1620145409,CA
bathsheba,13.2167,-59.5167,86,54,40,23.02,1620145411,BB
port hardy,50.6996,-127.4199,48.2,81,75,5.75,1620145200,CA
vandoeuvre-les-nancy,48.65,6.1833,49.15,87,100,12.66,1620145413,FR
airai,-8.9266,125.4092,57.49,83,99,3.06,1620145414,TL
codrington,-38.2667,141.9667,51.78,74,59,6.33,1620145416,AU
nome,64.5011,-165.4064,25.63,68,1,5.48,1620145417,US
bizhbulyak,53.6967,54.2642,63,44,19,11.1,1620145418,RU
beringovskiy,63.05,179.3167,20.14,96,93,3.44,1620145420,RU
labuhan,-6.8844,112.2051,80.87,81,100,8.84,1620145421,ID
coxim,-18.5067,-54.76,95.18,14,2,7.14,1620145422,BR
ereymentau,51.6199,73.1033,54.25,48,68,10.31,1620145424,KZ
mehran,33.1222,46.1646,71.6,26,20,4.61,1620145425,IR
leshukonskoye,64.8989,45.7622,37.99,51,100,11.54,1620145426,RU
adrar,20.5022,-10.0711,94.6,14,71,3.87,1620145428,MR
sao filipe,14.8961,-24.4956,71.08,73,21,7.85,1620145429,CV
luderitz,-26.6481,15.1594,67.06,72,62,13.06,1620145431,NA
carnarvon,-24.8667,113.6333,62.6,94,88,5.75,1620145432,AU
provideniya,64.3833,-173.3,27.79,63,5,1.74,1620145433,RU
cao bang,22.6667,106.25,73.53,96,23,4.05,1620145435,VN
fortuna,40.5982,-124.1573,51.15,100,90,5.75,1620145436,US
chachapoyas,-6.2317,-77.869,67.44,58,51,0.65,1620145437,PE
anloga,5.7947,0.8973,87.8,70,20,10.36,1620145272,GH
cabo san lucas,22.8909,-109.9124,73.83,68,1,4.61,1620145440,MX
karaton,-6.3424,106.1045,80.17,78,40,4.61,1620145441,ID
coihaique,-45.5752,-72.0662,44.6,65,0,4.61,1620145443,CL
leh,34.1667,77.5833,50.02,43,87,3.09,1620145444,IN
sanchez,19.2281,-69.6137,83.26,78,40,7.25,1620145446,DO
izumo,35.3667,132.7667,66.2,55,90,13.8,1620145447,JP
khatanga,71.9667,102.5,31.55,84,100,8.25,1620145448,RU
sapu,36.174,107.7082,52.38,21,26,3.11,1620145450,CN
kerchevskiy,59.946,56.2884,56.16,82,100,4.81,1620145451,RU
damienesti,46.7333,26.9833,68,28,0,9.22,1620145452,RO
contamana,-7.3333,-75.0167,91.71,48,54,1.32,1620145454,PE
grand gaube,-20.0064,57.6608,79,86,2,3,1620145455,MU
longyearbyen,78.2186,15.6401,30.2,80,75,10.36,1620145315,SJ
cap malheureux,-19.9842,57.6142,79,86,2,3,1620145457,MU
bichena,10.45,38.2,59.38,75,84,4.05,1620145459,ET
mandalgovi,45.7625,106.2708,43.25,32,5,4.45,1620145460,MN
sulangan,11.1373,123.7228,82.94,77,100,16.75,1620145461,PH
mayskiy,47.6931,40.1025,60.8,29,20,8.95,1620145463,RU
najran,17.4924,44.1277,86,15,40,6.91,1620145464,SA
kermanshah,34.3142,47.065,73.4,16,20,11.5,1620145465,IR
komsomolskiy,40.4272,71.7189,78.8,27,16,6.91,1620145467,UZ
bethel,41.3712,-73.414,58.08,82,90,2.62,1620145468,US
ahipara,-35.1667,173.1667,51.4,83,0,4.29,1620145470,NZ
edson,53.5835,-116.4356,44.6,76,40,12.66,1620145472,CA
sao jose da coroa grande,-8.8978,-35.1478,81.86,72,40,7.43,1620145473,BR
mascote,-15.5631,-39.3025,85.51,49,62,5.46,1620145474,BR
strezhevoy,60.7333,77.5889,42.8,61,90,6.71,1620145476,RU
minden,52.2833,8.9167,53.24,58,20,29.93,1620145478,DE
ocean city,39.2776,-74.5746,69.57,65,40,10.36,1620145479,US
am timan,11.0297,20.2827,98.85,19,84,9.15,1620145455,TD
veraval,20.9,70.3667,83.34,78,6,12.21,1620145483,IN
bar harbor,44.3876,-68.2039,51.46,38,90,6.91,1620145484,US
cherskiy,68.75,161.3,11.68,87,17,6.71,1620145486,RU
deputatskiy,69.3,139.9,24.93,98,100,3.24,1620145487,RU
olinda,-8.0089,-34.8553,77,78,75,6.35,1620145225,BR
la ronge,55.1001,-105.2842,35.6,48,7,5.75,1620145489,CA
dutlwe,-23.9833,23.9,64.69,28,0,3.85,1620145491,BW
batsfjord,70.6345,29.7185,32,80,75,5.75,1620145493,NO
lokosovo,61.1333,74.8167,39.47,93,100,9.75,1620145494,RU
nanzhang,31.7765,111.8386,62.83,44,100,4.9,1620145495,CN
wawa,9.9022,4.4192,96.21,32,98,6.08,1620145497,NG
bulgan,48.8125,103.5347,46.8,33,78,2.86,1620145459,MN
faya,18.3851,42.4509,68.9,64,40,6.91,1620145499,SA
hidrolandia,-4.4081,-40.4378,82.9,75,39,1.07,1620145500,BR
nadvoitsy,63.8667,34.3167,33.96,62,100,16.4,1620145502,RU
farmington,36.7281,-108.2187,55.6,58,20,5.75,1620145249,US
manokwari,-0.8667,134.0833,78.71,81,100,3.18,1620145223,ID
acarau,-2.8856,-40.12,82.02,77,48,10.18,1620145505,BR
hami,42.8,93.45,62.44,7,2,5.03,1620145507,CN
paamiut,61.994,-49.6678,42.31,57,16,8.16,1620145508,GL
eureka,40.8021,-124.1637,50.94,100,90,5.75,1620145509,US
surt,31.2089,16.5887,70.14,67,99,14.5,1620145511,LY
picos,-7.0769,-41.4669,94.1,33,19,5.01,1620145512,BR
kezmarok,49.1357,20.4335,55.72,41,20,13.8,1620145514,SK
nouadhibou,20.931,-17.0347,73.4,56,0,21.85,1620145515,MR
tasiilaq,65.6145,-37.6368,32,74,1,13.8,1620145516,GL
thompson,55.7435,-97.8558,33.8,75,90,5.75,1620145517,CA
englehart,47.8169,-79.8664,46.4,81,90,16.11,1620145519,CA
barstow,34.8986,-117.0228,72.18,17,1,9.22,1620145226,US
azul,-36.777,-59.8585,55,64,9,5.99,1620145521,AR
shepsi,44.0361,39.1489,58.78,71,94,9.75,1620145522,RU
rudbar,30.15,62.6,80.38,30,69,16.73,1620145524,AF
suntar,62.1444,117.6319,34.79,96,100,0.72,1620145525,RU
grimshaw,56.1834,-117.6027,43.9,87,90,5.75,1620145526,CA
nicolas bravo,18.45,-88.9167,87.87,74,75,17.27,1620145528,MX
nouakchott,18.0858,-15.9785,80.6,47,17,23.02,1620145517,MR
borovskoy,53.8,64.15,62.91,48,100,8.95,1620145530,KZ
chino valley,34.7575,-112.4538,65.8,25,1,0.43,1620145531,US
sitka,57.0531,-135.33,44.6,81,90,8.05,1620145533,US
nabire,-3.3667,135.4833,77.25,89,100,2.77,1620145534,ID
victoria,22.2855,114.1577,72.79,89,70,3.85,1620145275,HK
nemuro,43.3236,145.575,36.07,83,60,5.61,1620145537,JP
vangaindrano,-23.35,47.6,70.29,85,3,1.68,1620145538,MG
kindu,-2.95,25.95,77.56,79,91,4.38,1620145539,CD
chulman,56.8479,124.9104,33.48,96,100,3.51,1620145541,RU
dalvik,65.9702,-18.5286,39.2,41,20,6.91,1620145542,IS
chengde,40.9725,117.9361,46.65,19,15,7.96,1620145543,CN
srednekolymsk,67.45,153.6833,25.97,94,100,2.71,1620145545,RU
vao,-22.6667,167.4833,71.71,82,98,31.94,1620145546,NC
sal rei,16.1833,-22.9167,75.2,57,75,18.41,1620145547,CV
ambon,-3.6954,128.1814,78.8,94,40,4.61,1620145549,ID
zyryanka,65.75,150.85,30.43,99,100,3.2,1620145550,RU
aligudarz,33.4006,49.6949,56.16,55,57,5.26,1620145551,IR
tyumentsevo,53.3224,81.498,48.04,40,78,5.14,1620145553,RU
chivay,-15.6383,-71.6011,60.35,33,40,5.23,1620145554,PE
beian,63.6559,9.5683,46.53,53,75,23.02,1620145555,NO
moron,-34.6534,-58.6198,59.72,58,20,8.01,1620145557,AR
vardo,70.3705,31.1107,33.8,75,75,13.8,1620145558,NO
lydenburg,-25.0978,30.4597,48.99,69,3,1.03,1620145560,ZA
hirara,24.8,125.2833,75.33,92,65,18.48,1620145561,JP
kahului,20.8947,-156.47,66.78,82,20,5.75,1620145562,US
champerico,14.3,-91.9167,78.28,74,20,6.91,1620145564,GT
belaya gora,68.5333,146.4167,30.34,99,100,3.42,1620145565,RU
sakakah,29.9697,40.2064,93.2,10,40,8.05,1620145566,SA
olafsvik,64.8945,-23.7142,39.69,47,2,4.05,1620145568,IS
kaputa,-8.4689,29.6619,72.41,75,34,1.52,1620145569,ZM
namatanai,-3.6667,152.4333,79.45,82,19,1.74,1620145570,PG
dalaba,10.7,-12.25,88.11,25,69,5.88,1620145572,GN
henties bay,-22.116,14.2845,70.02,63,1,13,1620145573,NA
mumford,5.2618,-0.759,81.81,72,95,11.86,1620145574,GH
sakaiminato,35.55,133.2333,66.2,55,90,13.8,1620145507,JP
axim,4.8699,-2.2405,82.63,68,100,7.14,1620145577,GH
mezobereny,46.8167,21.0333,64.4,32,0,16.11,1620145578,HU
soe,-9.8607,124.284,64.17,91,81,5.08,1620145580,ID
danjiangkou,32.5428,111.5086,61.41,37,100,3.85,1620145581,CN
hamada,34.8833,132.0833,62.19,76,100,22.15,1620145582,JP
itaituba,-4.2761,-55.9836,86,70,40,4.61,1620145583,BR
xiuyan,40.2928,123.2744,45.23,96,18,0.98,1620145585,CN
tommot,58.9564,126.2925,32.14,99,98,0.87,1620145586,RU
aitape,-3.1374,142.3475,78.39,84,71,3.31,1620145587,PG
villa maria,-32.4075,-63.2402,54,54,75,7,1620145589,AR
caravelas,-17.7125,-39.2481,80.98,64,4,7.7,1620145590,BR
laguna,38.421,-121.4238,72.16,35,1,9.22,1620145592,US
narsaq,60.9167,-46.05,53.6,22,40,35.68,1620145593,GL
izhma,65.0083,53.9113,39.34,47,100,10.83,1620145594,RU
yaan,7.3833,8.5667,88.93,47,87,9.75,1620145596,NG
owo,7.1962,5.5868,83.05,65,100,7.27,1620145597,NG
yerbogachen,61.2767,108.0108,36.59,97,100,7.58,1620145598,RU
rehoboth,-23.3167,17.0833,76.6,20,31,7.67,1620145599,NA
sterling,39.0062,-77.4286,80.74,54,75,6.91,1620145586,US
ampanihy,-24.7,44.75,67.89,68,0,9.13,1620145602,MG
marathon,44.9,-89.7668,43.7,65,90,9.22,1620145604,US
abu kamal,34.4506,40.9171,92.52,16,66,6.4,1620145605,SY
mount isa,-20.7333,139.5,73.4,31,5,16.11,1620145607,AU
kenitra,34.261,-6.5802,69.8,73,20,9.22,1620145608,MA
kavaratti,10.5669,72.642,85.64,70,72,6.42,1620145609,IN
vila velha,-20.3297,-40.2925,79.43,73,40,6.91,1620145314,BR
clyde river,70.4692,-68.5914,28.4,86,20,23.02,1620145612,CA
bandarban,22.1965,92.2262,77,73,20,2.95,1620145613,BD
tilichiki,60.4667,166.1,11.75,92,100,9.8,1620145615,RU
roma,43.2128,-75.4557,53.96,94,90,4.61,1620145443,US
ayorou,14.7308,0.9174,107.82,9,51,6.08,1620145617,NE
barra do garcas,-15.89,-52.2567,86,35,0,10.36,1620145618,BR
khani,41.9563,42.9566,59,94,90,8.05,1620145620,GE
bay saint louis,30.3088,-89.33,81.54,78,75,11.5,1620145621,US
esperance,-33.8667,121.9,59,88,90,16.11,1620145622,AU
dingle,10.9995,122.6711,79.77,82,76,9.91,1620145624,PH
sa kaeo,13.75,102.3333,81.5,72,87,3.91,1620145625,TH
ahuimanu,21.4447,-157.8378,70.61,78,75,8.05,1620145626,US
havoysund,70.9963,24.6622,33.73,64,0,6.91,1620145628,NO
bandarbeyla,9.4942,50.8122,84.69,73,19,13.04,1620145629,SO
ierapetra,35.01,25.7353,71.83,78,0,3.44,1620145630,GR
iralaya,15,-83.2333,86,79,40,8.05,1620145632,HN
pisco,-13.7,-76.2167,71.76,73,89,8.05,1620145633,PE
zhangye,38.9342,100.4517,52.59,13,46,3.13,1620145634,CN
koboko,3.4136,30.9599,70.77,72,79,2.46,1620145636,UG
bastia,42.6667,9.3333,59.14,77,75,4.61,1620145637,FR
saint-pierre,-21.3393,55.4781,74.97,83,90,5.75,1620145638,RE
seidu,9.0167,-10.6,89.19,45,31,3.71,1620145640,SL
eidsvag,62.7767,8.0668,52.7,43,40,8.05,1620145642,NO
moranbah,-22.0016,148.0466,67.93,61,100,2.35,1620145643,AU
polson,47.6936,-114.1632,52.45,53,39,5.77,1620145644,US
lehigh acres,26.6254,-81.6248,91.94,55,1,9.22,1620145646,US
aykhal,66,111.5,24.28,84,97,1.48,1620145647,RU
cabano,10.5869,122.7002,82.54,77,88,15.52,1620145649,PH
padang,-0.9492,100.3543,78.8,94,75,8.05,1620145650,ID
tzucacab,20.0667,-89.05,93.47,42,99,8.7,1620145651,MX
college,64.8569,-147.8028,43.02,46,75,5.75,1620145653,US
alexandria,31.2156,29.9553,93.2,17,0,4.61,1620145654,EG
chandbali,20.7833,86.7667,75.81,65,93,7.05,1620145655,IN
acajutla,13.5928,-89.8275,79.7,69,0,2.3,1620145519,SV
maarianhamina,60.0973,19.9348,46.4,39,0,5.75,1620145658,AX
zhigansk,66.7697,123.3711,29.14,99,100,5.37,1620145659,RU
portland,45.5234,-122.6762,54.45,67,40,8.05,1620144896,US
saurimo,-9.6608,20.3916,82.4,54,75,2.13,1620145662,AO
abu zabad,12.35,29.25,83.91,48,53,15.35,1620145663,SD
bubaque,11.2833,-15.8333,77.86,67,35,17.11,1620145664,GW
mecca,21.4267,39.8261,88.61,37,0,7.74,1620145439,SA
casale monferrato,45.1334,8.4571,63,54,96,1.99,1620145667,IT
clarence town,-32.5833,151.7833,56.71,100,90,5.75,1620145668,AU
alofi,-19.0595,-169.9187,75.2,94,90,5.75,1620145669,NU
ossora,59.2353,163.0719,28.26,94,100,18.97,1620145671,RU
ponta delgada,37.7333,-25.6667,66.2,77,20,9.22,1620145672,PT
severobaykalsk,55.65,109.3167,26.85,88,60,3.2,1620145673,RU
krasnoselkup,65.7,82.4667,26.06,91,70,8.37,1620145675,RU
tazovskiy,67.4667,78.7,13.08,96,25,4.94,1620145676,RU
illela,13.7292,5.2975,105.93,8,69,9.22,1620145677,NG
kieta,-6.2167,155.6333,79.18,85,88,2.37,1620145679,PG
vicar,36.8316,-2.6427,69.12,60,20,9.22,1620145456,ES
micheweni,-4.9667,39.8333,78.64,83,89,17.69,1620145681,TZ
lichuan,30.3,108.85,55.02,92,100,2.77,1620145683,CN
lamar,33.6668,-95.5836,64.74,82,90,12.66,1620145684,US
rocha,-34.4833,-54.3333,62.29,54,50,16.78,1620145685,UY
kurumkan,54.3,110.3,35.98,62,36,2.53,1620145687,RU
guangyuan,32.442,105.823,57.81,81,100,4.47,1620145688,CN
bonthe,7.5264,-12.505,83.35,73,99,9.4,1620145689,SL
velyka lepetykha,47.1757,33.9436,55.9,51,60,10.49,1620145691,UA
brighton,50.8284,-0.1395,53.82,47,36,18.41,1620145491,GB
malakal,9.5334,31.6605,90.21,39,77,1.61,1620145693,SS
chipinge,-20.1883,32.6236,57.13,63,4,3.22,1620145694,ZW
tavricheskoye,54.5851,73.6395,55.4,30,0,8.95,1620145696,RU
berlevag,70.8578,29.0864,32.81,80,75,5.75,1620145697,NO
lloydminster,53.2835,-110.0016,46.4,25,75,9.22,1620145698,CA
isangel,-19.55,169.2667,71.6,94,90,11.88,1620145700,VU
igualada,41.581,1.6172,68.54,55,15,8.01,1620145701,ES
emerald,-23.5333,148.1667,64.4,68,9,2.3,1620145702,AU
svetlyy,54.675,20.1347,52.25,54,20,13.42,1620145704,RU
kiunga,-6.1219,141.2906,74.34,99,100,1.79,1620145705,PG
mugur-aksy,50.35,90.5,36.39,66,46,11.16,1620145706,RU
kailua,21.4022,-157.7394,71.38,78,75,8.05,1620145708,US
itirucu,-13.5317,-40.1503,79.68,46,40,6.73,1620145709,BR
anori,-3.7728,-61.6442,74.66,94,100,1.63,1620145710,BR
otjimbingwe,-22.35,16.1333,81.43,24,2,1.54,1620145712,NA
cardston,49.2,-113.3019,50.34,40,17,13.8,1620145713,CA
marsaxlokk,35.8419,14.5431,71.6,46,0,8.05,1620145714,MT
beausejour,50.0622,-96.5167,44.22,42,12,5.75,1620145716,CA
tiznit,29.5833,-9.5,64.76,59,60,14.2,1620145717,MA
bafata,12.1667,-14.75,106.48,11,42,3.78,1620145718,GW
tautira,-17.7333,-149.15,75.2,78,20,2.3,1620145720,PF
colares,38.7992,-9.4469,67.06,59,20,13.8,1620145721,PT
klaksvik,62.2266,-6.589,39.2,70,20,25.32,1620145723,FO
batticaloa,7.7102,81.6924,81.84,77,86,10.29,1620145724,LK
udimskiy,61.1417,45.9144,32.65,99,100,4.47,1620145725,RU
buraydah,26.326,43.975,89.6,20,0,9.22,1620145727,SA
margate,51.3813,1.3862,51.84,51,26,11.99,1620145728,GB
ust-ishim,57.6935,71.1665,57.15,54,36,11.41,1620145729,RU
ranong,9.9658,98.6348,81.05,82,76,4.88,1620145730,TH
vitim,59.4511,112.5578,28.71,96,40,2.39,1620145732,RU
isabela,6.7085,121.9711,80.6,89,75,1.14,1620145733,PH
vadgaon,20.9402,74.8712,95.95,21,32,8.39,1620145734,IN
raga,8.4596,25.678,74.71,81,86,6.69,1620145736,SS
constitucion,-35.3333,-72.4167,62.49,65,30,1.32,1620145737,CL
port lincoln,-34.7333,135.8667,58.03,60,95,10.18,1620145738,AU
amur,54,128,35.6,97,100,8.32,1620145740,RU
arinos,-15.9169,-46.1056,84.72,36,4,4.05,1620145741,BR
umm kaddadah,13.6017,26.6876,91.44,26,51,12.39,1620145742,SD
belyy yar,53.6039,91.3903,33.8,75,0,6.71,1620145744,RU
palmer,42.1584,-72.3287,52.36,87,90,8.05,1620145745,US
daru,-9.0763,143.2092,79.21,85,79,15.35,1620145746,PG
avera,33.194,-82.5271,82.87,61,40,13.76,1620145748,US
necochea,-38.5473,-58.7368,55.99,59,100,7,1620145749,AR
paradise valley,33.5312,-111.9427,79.99,21,1,3.44,1620145750,US
ostrovnoy,68.0531,39.5131,32.86,90,100,12.12,1620145752,RU
yellandu,17.6,80.3333,88.9,40,64,7.56,1620145753,IN
chengzihe,45.3333,131.0667,46.62,83,100,2.73,1620145754,CN
carutapera,-1.195,-46.02,85.33,65,59,4.79,1620145756,BR
petropavlovsk-kamchatskiy,53.0452,158.6483,42.8,52,100,20.13,1620145757,RU
tsumeb,-19.2333,17.7167,71.6,46,20,3.44,1620145758,NA
wewak,-3.5534,143.6268,79.9,77,46,1.57,1620145760,PG
agustin codazzi,10.0341,-73.2361,79.88,83,100,3.33,1620145761,CO
amapa,1,-52,84.2,69,26,2.44,1620145762,BR
fujin,47.26,132.0322,50.29,86,100,8.3,1620145763,CN
vorukh,39.8494,70.5838,67.32,58,85,3.8,1620145765,TJ
talaja,21.35,72.05,91.18,38,41,13.87,1620145766,IN
shimoda,34.6667,138.95,61.45,78,100,5.99,1620145767,JP
geraldton,-28.7667,114.6,66.2,88,90,14.97,1620145769,AU
dukat,62.55,155.55,3.9,87,33,3.74,1620145770,RU
pithapuram,17.1167,82.2667,84.2,74,20,6.91,1620145772,IN
straza,45.78,15.0728,62.49,37,0,16.11,1620145773,SI
zhezkazgan,47.8043,67.7144,67.84,20,95,10.78,1620145774,KZ
ust-nera,64.5667,143.2,27.52,92,51,1.77,1620145776,RU
diffa,13.3154,12.6113,104.02,4,6,9.69,1620145777,NE
basco,20.4487,121.9702,80.58,87,98,18.45,1620145778,PH
dalbandin,28.8947,64.4101,82.38,22,12,19.19,1620145779,PK
manama,26.2154,50.5832,86,37,0,9.22,1620145516,BH
kudat,6.8837,116.8477,82.2,89,20,4.61,1620145782,MY
baykit,61.67,96.37,35.42,97,100,10.8,1620145783,RU
cairns,-16.9167,145.7667,70.27,88,40,3.44,1620145528,AU
umm lajj,25.0213,37.2685,84.02,53,0,3.18,1620145786,SA
labuan,5.2767,115.2417,84.09,74,20,5.75,1620145787,MY
aklavik,68.2191,-135.0107,16.65,92,97,4.61,1620145788,CA
san angelo,31.4638,-100.437,63.21,67,75,19.57,1620145757,US
lardos,36.0942,28.0157,78.8,50,0,17.27,1620145791,GR
palembang,-2.9167,104.7458,82.4,78,40,3.44,1620145792,ID
abbeville,50.1,1.8333,54,56,31,21.09,1620145793,FR
neiafu,-18.65,-173.9833,78.8,83,75,11.5,1620145795,TO
whyalla,-33.0333,137.5833,53.6,66,61,10.36,1620145796,AU
turtas,58.9417,69.1325,59.94,62,90,13.65,1620145798,RU
aviemore,57.1955,-3.8259,47.48,61,40,17.27,1620145799,GB
sorland,67.667,12.6934,42.8,39,0,13.8,1620145800,NO
onega,63.9061,38.1404,38.5,53,100,13.31,1620145802,RU
muravlenko,63.7898,74.523,32.99,67,94,9.4,1620145803,RU
shelburne,44.0787,-80.2041,51.24,100,100,7.9,1620145804,CA
cockburn town,21.4612,-71.1419,84.2,61,40,11.5,1620145806,TC
katangli,51.7102,143.2326,18.48,97,61,3.56,1620145807,RU
burton,42.9995,-83.6163,55.42,88,90,12.66,1620145809,US
payakumbuh,-0.2202,100.6308,71.55,96,100,2.3,1620145810,ID
kabanjahe,3.1001,98.4908,78.8,89,75,6.91,1620145812,ID
chebarkul,54.9749,60.3633,59.74,51,70,10.54,1620145813,RU
itupiranga,-5.1347,-49.3267,89.6,58,75,4.61,1620145815,BR
meadow lake,34.8014,-106.5436,56.26,62,20,6.85,1620145817,US
luganville,-15.5333,167.1667,76.5,87,0,2.33,1620145818,VU
dodge city,37.7528,-100.0171,55.69,47,1,16.11,1620145820,US
mogadishu,2.0371,45.3438,82.96,77,71,12.46,1620145821,SO
mitsamiouli,-11.3847,43.2844,80.53,73,89,19.42,1620145822,KM
sioux lookout,50.1001,-91.917,39.2,81,90,5.75,1620145824,CA
polican,40.6122,20.0981,60.85,76,98,5.19,1620145825,AL
port macquarie,-31.4333,152.9167,56.52,99,98,1.01,1620145827,AU
sumenep,-7.0167,113.8667,80.58,79,100,8.81,1620145828,ID
fangshan,39.6983,115.9925,57.6,20,0,8.95,1620145829,CN
hervey bay,-25.2986,152.8535,66,92,38,0.72,1620145831,AU
coolum beach,-26.5333,153.1,62.15,97,38,3.31,1620145832,AU
christchurch,-43.5333,172.6333,53.82,66,32,3.44,1620145833,NZ
hargeysa,9.56,44.065,68.81,81,100,7.54,1620145835,SO
adoni,15.6333,77.2833,90.84,34,61,3.4,1620145705,IN
jalu,29.0331,21.5482,100.98,8,100,4.74,1620145837,LY
durango,24.8333,-104.8333,65.57,22,0,4.94,1620145562,MX
bontang,0.1333,117.5,79.43,86,96,6.04,1620145840,ID
krasnyy yar,46.5331,48.3456,71.4,52,40,22.37,1620145841,RU
sistranda,63.7256,8.834,48.2,53,75,23.02,1620145842,NO
sao joao da barra,-21.6403,-41.0511,82.4,61,75,4.61,1620145843,BR
hamilton,39.1834,-84.5333,65.84,94,75,6.91,1620145845,US
nizwa,22.9333,57.5333,86.13,33,69,13.62,1620145846,OM
salalah,17.0151,54.0924,86,74,40,9.22,1620145847,OM
mount gambier,-37.8333,140.7667,46.4,81,75,2.35,1620145849,AU
altagracia de orituco,9.8601,-66.3814,79.72,73,87,3.02,1620145850,VE
san martin,-33.081,-68.4681,53.6,54,40,8.05,1620145851,AR
lahij,13.1667,44.5833,83.41,62,61,5.21,1620145853,YE
qarqin,37.4185,66.0436,77.27,30,86,17.67,1620145744,AF
belchatow,51.3688,19.3567,60.01,41,100,17,1620145855,PL
druzhba,52.0428,33.9453,47.17,58,78,13,1620145629,UA
stolin,51.8912,26.846,49.01,64,86,6.24,1620145858,BY
kupang,-10.1667,123.5833,76.32,78,90,9.46,1620145701,ID
panaba,21.2833,-88.2667,97.63,29,13,18.54,1620145860,MX
dasoguz,41.8363,59.9666,73.4,40,0,2.3,1620145861,TM
lamu,-2.2717,40.902,79.79,84,79,17.45,1620145863,KE
wadi musa,30.3222,35.4793,76.12,20,5,7.65,1620145864,JO
korla,41.7597,86.1469,65.1,21,0,4.27,1620145865,CN
sadiqabad,28.3062,70.1307,94.91,18,41,2.35,1620145867,PK
gat,31.61,34.7642,79.7,46,58,4.32,1620145868,IL
ribe,55.3305,8.7697,45.66,87,75,16.11,1620145869,DK
los alamos,35.8881,-106.307,46.33,75,90,10.36,1620145871,US
morro bay,35.3658,-120.8499,67.84,52,1,2.39,1620145872,US
teya,60.3778,92.6267,30.06,86,30,11.41,1620145874,RU
harper,4.375,-7.7169,81.16,81,100,8.21,1620145875,LR
chamonix-mont-blanc,45.9238,6.8693,52.27,47,99,7,1620145876,FR
oskarshamn,57.2645,16.4484,42.01,93,100,4,1620145875,SE
omboue,-1.5746,9.2618,79.93,83,100,8.95,1620145879,GA
santa maria da vitoria,-13.3947,-44.1886,90.21,30,6,5.32,1620145880,BR
morros,-9.4467,-46.3003,88.16,39,14,4.45,1620145881,BR
lorengau,-2.0226,147.2712,79.32,82,32,3.71,1620145883,PG
bonavista,48.6499,-53.1147,51.8,40,43,9.22,1620145884,CA
hannibal,39.7084,-91.3585,55.76,62,90,12.66,1620145885,US
pochutla,15.7432,-96.4661,87.06,54,40,17.27,1620145887,MX
abu dhabi,24.4667,54.3667,90.37,45,6,9.22,1620145783,AE
filadelfia,39.9523,-75.1638,71.15,83,40,4.61,1620145635,US
ulladulla,-35.35,150.4667,55.35,100,90,6.91,1620145890,AU
ntcheu,-14.8203,34.6359,58.73,74,64,2.98,1620145892,MW
corni,47.65,26.5833,59.9,41,0,10.36,1620145893,RO
orlik,52.5178,99.825,33.53,76,96,8.37,1620145895,RU
ancud,-41.8697,-73.8203,46.78,76,20,11.5,1620145896,CL
niamey,13.5137,2.1098,105.8,14,20,6.91,1620145897,NE
barsovo,61.1667,73.1667,39.2,93,40,8.95,1620145899,RU
boyolangu,-8.1181,111.8935,75.61,89,94,0.98,1620145900,ID
tarkwa,5.3064,-1.9847,85.19,60,98,7.9,1620145901,GH
coquimbo,-29.9533,-71.3436,69.8,46,20,3.44,1620145903,CL
finschhafen,-6.6024,147.8681,79.95,78,82,6.71,1620145904,PG
tabou,4.423,-7.3528,80.92,82,100,8.12,1620145906,CI
zhanaozen,43.3,52.8,67.3,52,0,8.05,1620145907,KZ
san jeronimo,-11.9472,-75.2829,60.82,49,100,2.91,1620145908,PE
klyuchi,52.2667,79.1667,50.23,36,26,7.05,1620145910,RU
ulcinj,41.9294,19.2244,64.83,28,0,11.5,1620145911,ME
naranjal,-2.6667,-79.6167,85.37,66,20,8.05,1620145912,EC
bonga,7.2833,36.2333,62.31,99,99,2.62,1620145702,ET
pizarro,4.9533,-77.366,82.06,69,43,6.06,1620145915,CO
saint-georges,12.0564,-61.7485,75.2,94,75,11.5,1620145917,GD
turukhansk,65.8167,87.9833,27.27,92,100,5.37,1620145918,RU
byron bay,-28.65,153.6167,60.51,88,48,4.61,1620145920,AU
likasi,-10.9814,26.7333,65.77,76,99,3.18,1620145921,CD
kashi,39.4547,75.9797,66.2,18,75,4.47,1620145922,CN
baherden,38.4362,57.4316,64.83,58,100,4.74,1620145924,TM
south lake tahoe,38.9332,-119.9844,56.64,40,1,8.05,1620145827,US
gazli,40.1333,63.45,79.38,24,100,18.84,1620145926,UZ
shingu,33.7333,135.9833,59.29,85,100,5.14,1620145927,JP
chapleau,47.8405,-83.4034,41,93,90,6.91,1620145929,CA
nakamura,32.9833,132.9333,64.45,85,100,7.47,1620145930,JP
san cristobal,7.7669,-72.225,82.4,65,40,6.91,1620145931,VE
bambanglipuro,-7.95,110.2833,77.81,87,100,5.03,1620145933,ID
alice springs,-23.7,133.8833,51.8,76,100,9.37,1620145934,AU
udachnyy,66.4167,112.4,28.4,95,96,1.01,1620145936,RU
aksarka,66.5606,67.7975,21.15,92,7,3.58,1620145937,RU
saquarema,-22.92,-42.5103,82.4,58,20,12.66,1620145880,BR
elizabeth city,36.2946,-76.2511,81.48,61,1,12.66,1620145898,US
urumqi,43.801,87.6005,62.6,27,0,4.47,1620145938,CN
ondjiva,-17.0667,15.7333,82.4,44,40,5.75,1620145942,AO
rajshahi,24.3667,88.6,79.61,63,90,3.15,1620145943,BD
nurota,40.5614,65.6886,71.6,73,98,6.91,1620145944,UZ
galeana,24.8333,-100.0667,77.58,19,5,5.1,1620145806,MX
havre-saint-pierre,50.2334,-63.5986,51.8,46,90,13.8,1620145947,CA
christiansburg,37.1298,-80.4089,80.46,50,1,6.91,1620145948,US
toamasina,-18.1667,49.3833,77,94,40,4.25,1620145949,MG
barcelos,41.5388,-8.6151,63.63,72,20,18.41,1620145951,PT
ortakoy,38.7373,34.0387,68,52,75,18.41,1620145952,TR
palasa,18.7667,84.4167,77.9,86,87,2.95,1620145953,IN
valleyview,55.0667,-117.2859,44.6,93,50,5.75,1620145955,CA
pandharpur,17.6667,75.3333,86.81,45,31,11.63,1620145956,IN
river falls,44.8614,-92.6238,52.65,54,90,8.05,1620145957,US
manto,14.9167,-86.3833,84.2,61,75,6.6,1620145959,HN
acapulco,16.8634,-99.8901,84.2,51,1,8.05,1620145686,MX
kavieng,-2.5744,150.7967,82.2,75,30,0.98,1620145961,PG
agbor,6.2518,6.1934,81.46,71,100,5.53,1620145962,NG
freeport,40.6576,-73.5832,62.33,77,75,3.44,1620145922,US
